{
  "name": "Madrid Centro y Barrios",
  "city": "Madrid",
  "description": "Escenario teórico con puntos de estacionamiento distribuidos por barrios céntricos y de alta demanda en Madrid.",
  "parking_points": [
    {
      "id": "MAD-001",
      "name": "Puerta del Sol",
      "location": {"lat": 40.416775, "lng": -3.70379},
      "total_stands": 30,
      "initial_bikes": 18
    },
    {
      "id": "MAD-002",
      "name": "Gran Vía - Callao",
      "location": {"lat": 40.42028, "lng": -3.70579},
      "total_stands": 28,
      "initial_bikes": 16
    },
    {
      "id": "MAD-003",
      "name": "Malasaña - Plaza del Dos de Mayo",
      "location": {"lat": 40.42509, "lng": -3.70475},
      "total_stands": 24,
      "initial_bikes": 14
    },
    {
      "id": "MAD-004",
      "name": "Chueca - Plaza de Chueca",
      "location": {"lat": 40.42256, "lng": -3.69909},
      "total_stands": 22,
      "initial_bikes": 12
    },
    {
      "id": "MAD-005",
      "name": "Barrio de las Letras",
      "location": {"lat": 40.41383, "lng": -3.69825},
      "total_stands": 20,
      "initial_bikes": 12
    },
    {
      "id": "MAD-006",
      "name": "Lavapiés - Plaza de Lavapiés",
      "location": {"lat": 40.40904, "lng": -3.70073},
      "total_stands": 18,
      "initial_bikes": 10
    },
    {
      "id": "MAD-007",
      "name": "La Latina - Plaza de la Cebada",
      "location": {"lat": 40.41124, "lng": -3.70825},
      "total_stands": 20,
      "initial_bikes": 11
    },
    {
      "id": "MAD-008",
      "name": "Atocha - Estación",
      "location": {"lat": 40.40662, "lng": -3.69069},
      "total_stands": 26,
      "initial_bikes": 15
    },
    {
      "id": "MAD-009",
      "name": "Retiro - Puerta de Alcalá",
      "location": {"lat": 40.41978, "lng": -3.68887},
      "total_stands": 24,
      "initial_bikes": 14
    },
    {
      "id": "MAD-010",
      "name": "Salamanca - Calle Serrano",
      "location": {"lat": 40.43121, "lng": -3.68756},
      "total_stands": 22,
      "initial_bikes": 13
    },
    {
      "id": "MAD-011",
      "name": "Goya - Palacio de Deportes",
      "location": {"lat": 40.42427, "lng": -3.67108},
      "total_stands": 26,
      "initial_bikes": 15
    },
    {
      "id": "MAD-012",
      "name": "Chamberí - Plaza de Olavide",
      "location": {"lat": 40.43218, "lng": -3.70157},
      "total_stands": 20,
      "initial_bikes": 12
    },
    {
      "id": "MAD-013",
      "name": "Argüelles - Princesa",
      "location": {"lat": 40.43018, "lng": -3.71753},
      "total_stands": 18,
      "initial_bikes": 11
    },
    {
      "id": "MAD-014",
      "name": "Moncloa - Intercambiador",
      "location": {"lat": 40.43522, "lng": -3.71979},
      "total_stands": 30,
      "initial_bikes": 19
    },
    {
      "id": "MAD-015",
      "name": "Chamartín - Plaza de Castilla",
      "location": {"lat": 40.46663, "lng": -3.6896},
      "total_stands": 32,
      "initial_bikes": 20
    },
    {
      "id": "MAD-016",
      "name": "Tetuán - Cuatro Caminos",
      "location": {"lat": 40.44879, "lng": -3.70797},
      "total_stands": 24,
      "initial_bikes": 13
    },
    {
      "id": "MAD-017",
      "name": "Hortaleza - Palacio de Hielo",
      "location": {"lat": 40.46755, "lng": -3.63706},
      "total_stands": 18,
      "initial_bikes": 9
    },
    {
      "id": "MAD-018",
      "name": "Usera - Matadero Madrid",
      "location": {"lat": 40.39144, "lng": -3.6989},
      "total_stands": 16,
      "initial_bikes": 8
    },
    {
      "id": "MAD-019",
      "name": "Legazpi - Plaza Río 2",
      "location": {"lat": 40.39155, "lng": -3.69803},
      "total_stands": 18,
      "initial_bikes": 10
    },
    {
      "id": "MAD-020",
      "name": "Méndez Álvaro - Estación Sur",
      "location": {"lat": 40.39849, "lng": -3.68679},
      "total_stands": 28,
      "initial_bikes": 17
    }
  ]
}
